frame_id,timestamp,speed,input_throttle,input_steer,input_brake,x,y,z,pitch,yaw,roll
186521,73.38459968240932,0.0,0.0,0.0,0.0,-15.448323249816895,-68.00706481933594,0.0018819808028638363,0.0,-179.4032440185547,0.0
186522,73.38916570041329,0.0,0.0,0.0,0.0,-15.448323249816895,-68.00706481933594,0.0018819808028638363,0.0,-179.4032440185547,0.0
186523,73.40433784294873,0.0,0.0,0.0,0.0,-15.448323249816895,-68.00706481933594,0.0018819808028638363,0.0,-179.4032440185547,0.0
186524,73.41538102552295,0.0,0.0,0.0,0.0,-15.448323249816895,-68.00706481933594,0.0018819808028638363,0.0,-179.4032440185547,0.0
186525,73.42528613936156,0.0,0.0,0.0,0.0,-15.448323249816895,-68.00706481933594,0.0018819808028638363,0.0,-179.4032440185547,0.0
186526,73.4359307475388,0.0,0.0,0.0,0.0,-15.448323249816895,-68.00706481933594,0.0018819808028638363,0.0,-179.4032440185547,0.0
186527,73.44646489340812,0.0,0.0,0.0,0.0,-15.448323249816895,-68.00706481933594,0.0018819808028638363,0.0,-179.4032440185547,0.0
186528,73.46186055894941,0.0,0.0,0.0,0.0,-15.448323249816895,-68.00706481933594,0.0018819808028638363,0.0,-179.4032440185547,0.0
186529,73.47259781416506,0.0,0.0,0.0,0.0,-15.448323249816895,-68.00706481933594,0.0018819808028638363,0.0,-179.4032440185547,0.0
186530,73.48256646376103,0.0,0.0,0.0,0.0,-15.448323249816895,-68.00706481933594,0.0018819808028638363,0.0,-179.4032440185547,0.0
186531,73.49272916093469,0.0,0.0,0.0,0.0,-15.448323249816895,-68.00706481933594,0.0018819808028638363,0.0,-179.4032440185547,0.0
186532,73.50335969496518,0.0,0.0,0.0,0.0,-15.448323249816895,-68.00706481933594,0.0018819808028638363,0.0,-179.4032440185547,0.0
186533,73.51282346434891,0.0,0.0,0.0,0.0,-15.448323249816895,-68.00706481933594,0.0018819808028638363,0.0,-179.4032440185547,0.0
186534,73.52253632154316,0.0,0.0,0.0,0.0,-15.448323249816895,-68.00706481933594,0.0018819808028638363,0.0,-179.4032440185547,0.0
186535,73.53242807183415,0.0,0.0,0.0,0.0,-15.448323249816895,-68.00706481933594,0.0018819808028638363,0.0,-179.4032440185547,0.0
186536,73.54160260315984,0.0,0.0,0.0,0.0,-15.448323249816895,-68.00706481933594,0.0018819808028638363,0.0,-179.4032440185547,0.0
186537,73.55143790133297,0.0,0.0,0.0,0.0,-15.448323249816895,-68.00706481933594,0.0018819808028638363,0.0,-179.4032440185547,0.0
186538,73.56145399622619,0.0,0.0,0.0,0.0,-15.448323249816895,-68.00706481933594,0.0018819808028638363,0.0,-179.4032440185547,0.0
186539,73.57130670081824,0.0,0.0,0.0,0.0,-15.448323249816895,-68.00706481933594,0.0018819808028638363,0.0,-179.4032440185547,0.0
186540,73.58135654497892,0.0,0.0,0.0,0.0,-15.448323249816895,-68.00706481933594,0.0018819808028638363,0.0,-179.4032440185547,0.0
186541,73.59121907874942,0.0,0.0,0.0,0.0,-15.448323249816895,-68.00706481933594,0.0018819808028638363,0.0,-179.4032440185547,0.0
186542,73.60526415053755,0.0,0.0,0.0,0.0,-15.448323249816895,-68.00706481933594,0.0018819808028638363,0.0,-179.4032440185547,0.0
186543,73.61592500749975,0.0,0.0,0.0,0.0,-15.448323249816895,-68.00706481933594,0.0018819808028638363,0.0,-179.4032440185547,0.0
186544,73.62607005890459,0.0,0.0,0.0,0.0,-15.448323249816895,-68.00706481933594,0.0018819808028638363,0.0,-179.4032440185547,0.0
186545,73.63609720487148,0.0,0.0,0.0,0.0,-15.448323249816895,-68.00706481933594,0.0018819808028638363,0.0,-179.4032440185547,0.0
186546,73.64589982666075,0.0,0.0,0.0,0.0,-15.448323249816895,-68.00706481933594,0.0018819808028638363,0.0,-179.4032440185547,0.0
186547,73.65567316208035,0.0,0.0,0.0,0.0,-15.448323249816895,-68.00706481933594,0.0018819808028638363,0.0,-179.4032440185547,0.0
186548,73.66574647184461,0.0,0.0,0.0,0.0,-15.448323249816895,-68.00706481933594,0.0018819808028638363,0.0,-179.4032440185547,0.0
186549,73.67578842677176,0.0,0.0,0.0,0.0,-15.448323249816895,-68.00706481933594,0.0018819808028638363,0.0,-179.4032440185547,0.0
186550,73.68569315690547,0.0,0.0,0.0,0.0,-15.448323249816895,-68.00706481933594,0.0018819808028638363,0.0,-179.4032440185547,0.0
186551,73.69565652124584,0.0,0.0,0.0,0.0,-15.448323249816895,-68.00706481933594,0.0018819808028638363,0.0,-179.4032440185547,0.0
186552,73.70904874615371,0.0,0.0,0.0,0.0,-15.448323249816895,-68.00706481933594,0.0018819808028638363,0.0,-179.4032440185547,0.0
186553,73.71874039433897,0.0,0.0,0.0,0.0,-15.448323249816895,-68.00706481933594,0.0018819808028638363,0.0,-179.4032440185547,0.0
186554,73.72855590097606,0.0,0.0,0.0,0.0,-15.448323249816895,-68.00706481933594,0.0018819808028638363,0.0,-179.4032440185547,0.0
186555,73.7380544943735,0.0,0.0,0.0,0.0,-15.448323249816895,-68.00706481933594,0.0018819808028638363,0.0,-179.4032440185547,0.0
186556,73.74777928553522,0.0,0.0,0.0,0.0,-15.448323249816895,-68.00706481933594,0.0018819808028638363,0.0,-179.4032440185547,0.0
186557,73.7575530493632,0.0,0.0,0.0,0.0,-15.448323249816895,-68.00706481933594,0.0018819808028638363,0.0,-179.4032440185547,0.0
186558,73.76753485295922,0.0,0.0,0.0,0.0,-15.448323249816895,-68.00706481933594,0.0018819808028638363,0.0,-179.4032440185547,0.0
186559,73.77749278768897,0.0,0.0,0.0,0.0,-15.448323249816895,-68.00706481933594,0.0018819808028638363,0.0,-179.4032440185547,0.0
186560,73.78881542757154,0.0,0.0,0.0,0.0,-15.448323249816895,-68.00706481933594,0.0018819808028638363,0.0,-179.4032440185547,0.0
186561,73.79920211993158,0.0,0.0,0.0,0.0,-15.448323249816895,-68.00706481933594,0.0018819808028638363,0.0,-179.4032440185547,0.0
186562,73.8092194525525,0.0,0.0,0.0,0.0,-15.448323249816895,-68.00706481933594,0.0018819808028638363,0.0,-179.4032440185547,0.0
186563,73.81929172948003,0.0,0.0,0.0,0.0,-15.448323249816895,-68.00706481933594,0.0018819808028638363,0.0,-179.4032440185547,0.0
186564,73.82909460924566,0.0,0.0,0.0,0.0,-15.448323249816895,-68.00706481933594,0.0018819808028638363,0.0,-179.4032440185547,0.0
186565,73.83873774018139,0.0,0.0,0.0,0.0,-15.448323249816895,-68.00706481933594,0.0018819808028638363,0.0,-179.4032440185547,0.0
186566,73.84835162758827,0.0,0.0,0.0,0.0,-15.448323249816895,-68.00706481933594,0.0018819808028638363,0.0,-179.4032440185547,0.0
186567,73.85777712613344,0.0,0.0,0.0,0.0,-15.448323249816895,-68.00706481933594,0.0018819808028638363,0.0,-179.4032440185547,0.0
186568,73.86783296428621,0.0,0.0,0.0,0.0,-15.448323249816895,-68.00706481933594,0.0018819808028638363,0.0,-179.4032440185547,0.0
186569,73.87779057584703,0.0,0.0,0.0,0.0,-15.448323249816895,-68.00706481933594,0.0018819808028638363,0.0,-179.4032440185547,0.0
186570,73.887282227166,0.0,0.0,0.0,0.0,-15.448323249816895,-68.00706481933594,0.0018819808028638363,0.0,-179.4032440185547,0.0
186571,73.89675481244922,0.0,0.0,0.0,0.0,-15.448323249816895,-68.00706481933594,0.0018819808028638363,0.0,-179.4032440185547,0.0
186572,73.90663974639028,0.0,0.0,0.0,0.0,-15.448323249816895,-68.00706481933594,0.0018819808028638363,0.0,-179.4032440185547,0.0
186573,73.91574323922396,0.0,0.0,0.0,0.0,-15.448323249816895,-68.00706481933594,0.0018819808028638363,0.0,-179.4032440185547,0.0
186574,73.92502672877163,0.0,0.0,0.0,0.0,-15.448323249816895,-68.00706481933594,0.0018819808028638363,0.0,-179.4032440185547,0.0
186575,73.93411369156092,0.0,0.0,0.0,0.0,-15.448323249816895,-68.00706481933594,0.0018819808028638363,0.0,-179.4032440185547,0.0
186576,73.94357859622687,0.0,0.0,0.0,0.0,-15.448323249816895,-68.00706481933594,0.0018819808028638363,0.0,-179.4032440185547,0.0
186577,73.95259942021221,0.0,0.0,0.0,0.0,-15.448323249816895,-68.00706481933594,0.0018819808028638363,0.0,-179.4032440185547,0.0
186578,73.96217924077064,0.0,0.0,0.0,0.0,-15.448323249816895,-68.00706481933594,0.0018819808028638363,0.0,-179.4032440185547,0.0
186579,73.97120746597648,0.0,0.0,0.0,0.0,-15.448323249816895,-68.00706481933594,0.0018819808028638363,0.0,-179.4032440185547,0.0
186580,73.98075660690665,0.0,0.0,0.0,0.0,-15.448323249816895,-68.00706481933594,0.0018819808028638363,0.0,-179.4032440185547,0.0
186581,73.99033346865326,0.0,0.0,0.0,0.0,-15.448323249816895,-68.00706481933594,0.0018819808028638363,0.0,-179.4032440185547,0.0
186582,73.99961358960718,0.0,0.0,0.0,0.0,-15.448323249816895,-68.00706481933594,0.0018819808028638363,0.0,-179.4032440185547,0.0
186583,74.01354535389692,0.0,0.0,0.0,0.0,-15.448323249816895,-68.00706481933594,0.0018819808028638363,0.0,-179.4032440185547,0.0
186584,74.02308431081474,0.0,0.0,0.0,0.0,-15.448323249816895,-68.00706481933594,0.0018819808028638363,0.0,-179.4032440185547,0.0
186585,74.03251891769469,0.0,0.0,0.0,0.0,-15.448323249816895,-68.00706481933594,0.0018819808028638363,0.0,-179.4032440185547,0.0
186586,74.04188677854836,0.0,0.0,0.0,0.0,-15.448323249816895,-68.00706481933594,0.0018819808028638363,0.0,-179.4032440185547,0.0
186587,74.05116164311767,0.0,0.0,0.0,0.0,-15.448323249816895,-68.00706481933594,0.0018819808028638363,0.0,-179.4032440185547,0.0
186588,74.06074576079845,0.0,0.0,0.0,0.0,-15.448323249816895,-68.00706481933594,0.0018819808028638363,0.0,-179.4032440185547,0.0
186589,74.0704661719501,0.0,0.0,0.0,0.0,-15.448323249816895,-68.00706481933594,0.0018819808028638363,0.0,-179.4032440185547,0.0
186590,74.0802153032273,0.0,0.0,0.0,0.0,-15.448323249816895,-68.00706481933594,0.0018819808028638363,0.0,-179.4032440185547,0.0
186591,74.08978404011577,0.0,0.0,0.0,0.0,-15.448323249816895,-68.00706481933594,0.0018819808028638363,0.0,-179.4032440185547,0.0
186592,74.09913284052163,0.0,0.0,0.0,0.0,-15.448323249816895,-68.00706481933594,0.0018819808028638363,0.0,-179.4032440185547,0.0
186593,74.10864070430398,0.0,0.0,0.0,0.0,-15.448323249816895,-68.00706481933594,0.0018819808028638363,0.0,-179.4032440185547,0.0
186594,74.11864878144115,0.0,0.0,0.0,0.0,-15.448323249816895,-68.00706481933594,0.0018819808028638363,0.0,-179.4032440185547,0.0
186595,74.12809760775417,0.0,0.0,0.0,0.0,-15.448323249816895,-68.00706481933594,0.0018819808028638363,0.0,-179.4032440185547,0.0
186596,74.13798726350069,0.0,0.0,0.0,0.0,-15.448323249816895,-68.00706481933594,0.0018819808028638363,0.0,-179.4032440185547,0.0
186597,74.15149943437427,0.0,0.0,0.0,0.0,-15.448323249816895,-68.00706481933594,0.0018819808028638363,0.0,-179.4032440185547,0.0
186598,74.16085071116686,0.0,0.0,0.0,0.0,-15.448323249816895,-68.00706481933594,0.0018819808028638363,0.0,-179.4032440185547,0.0
186599,74.17052367515862,0.0,0.0,0.0,0.0,-15.448323249816895,-68.00706481933594,0.0018819808028638363,0.0,-179.4032440185547,0.0
186600,74.1801641639322,0.0,0.0,0.0,0.0,-15.448323249816895,-68.00706481933594,0.0018819808028638363,0.0,-179.4032440185547,0.0
186601,74.18953108228743,0.0,0.0,0.0,0.0,-15.448323249816895,-68.00706481933594,0.0018819808028638363,0.0,-179.4032440185547,0.0
186602,74.19905078597367,0.0,0.0,0.0,0.0,-15.448323249816895,-68.00706481933594,0.0018819808028638363,0.0,-179.4032440185547,0.0
186603,74.2085564378649,0.0,0.0,0.0,0.0,-15.448323249816895,-68.00706481933594,0.0018819808028638363,0.0,-179.4032440185547,0.0
186604,74.22136889863759,0.0,0.0,0.0,0.0,-15.448323249816895,-68.00706481933594,0.0018819808028638363,0.0,-179.4032440185547,0.0
186605,74.23090155143291,0.0,0.0,0.0,0.0,-15.448323249816895,-68.00706481933594,0.0018819808028638363,0.0,-179.4032440185547,0.0
186606,74.24068770371377,0.0,0.0,0.0,0.0,-15.448323249816895,-68.00706481933594,0.0018819808028638363,0.0,-179.4032440185547,0.0
186607,74.2501500537619,0.0,0.0,0.0,0.0,-15.448323249816895,-68.00706481933594,0.0018819808028638363,0.0,-179.4032440185547,0.0
186608,74.25968463532627,0.0,0.0,0.0,0.0,-15.448323249816895,-68.00706481933594,0.0018819808028638363,0.0,-179.4032440185547,0.0
186609,74.26964272651821,0.0,0.0,0.0,0.0,-15.448323249816895,-68.00706481933594,0.0018819808028638363,0.0,-179.4032440185547,0.0
186610,74.28298719972372,0.0,0.0,0.0,0.0,-15.448323249816895,-68.00706481933594,0.0018819808028638363,0.0,-179.4032440185547,0.0
186611,74.29290886688977,0.0,0.0,0.0,0.0,-15.448323249816895,-68.00706481933594,0.0018819808028638363,0.0,-179.4032440185547,0.0
186612,74.30283797811717,0.0,0.0,0.0,0.0,-15.448323249816895,-68.00706481933594,0.0018819808028638363,0.0,-179.4032440185547,0.0
186613,74.31233934592456,0.0,0.0,0.0,0.0,-15.448323249816895,-68.00706481933594,0.0018819808028638363,0.0,-179.4032440185547,0.0
186614,74.32184068113565,0.0,0.0,0.0,0.0,-15.448323249816895,-68.00706481933594,0.0018819808028638363,0.0,-179.4032440185547,0.0
186615,74.33138261642307,0.0,0.0,0.0,0.0,-15.448323249816895,-68.00706481933594,0.0018819808028638363,0.0,-179.4032440185547,0.0
186616,74.34483384154737,0.0,0.0,0.0,0.0,-15.448323249816895,-68.00706481933594,0.0018819808028638363,0.0,-179.4032440185547,0.0
186617,74.35441353917122,0.0,0.0,0.0,0.0,-15.448323249816895,-68.00706481933594,0.0018819808028638363,0.0,-179.4032440185547,0.0
186618,74.36373833287507,0.0,0.0,0.0,0.0,-15.448323249816895,-68.00706481933594,0.0018819808028638363,0.0,-179.4032440185547,0.0
186619,74.37353433389217,0.0,0.0,0.0,0.0,-15.448323249816895,-68.00706481933594,0.0018819808028638363,0.0,-179.4032440185547,0.0
186620,74.38302525412291,0.0,0.0,0.0,0.0,-15.448323249816895,-68.00706481933594,0.0018819808028638363,0.0,-179.4032440185547,0.0
186621,74.3925308175385,0.0,0.0,0.0,0.0,-15.448323249816895,-68.00706481933594,0.0018819808028638363,0.0,-179.4032440185547,0.0
186622,74.405632651411,0.0,0.0,0.0,0.0,-15.448323249816895,-68.00706481933594,0.0018819808028638363,0.0,-179.4032440185547,0.0
186623,74.41522156726569,0.0,0.0,0.0,0.0,-15.448323249816895,-68.00706481933594,0.0018819808028638363,0.0,-179.4032440185547,0.0
186624,74.42457022424787,0.0,0.0,0.0,0.0,-15.448323249816895,-68.00706481933594,0.0018819808028638363,0.0,-179.4032440185547,0.0
186625,74.4340965570882,0.0,0.0,0.0,0.0,-15.448323249816895,-68.00706481933594,0.0018819808028638363,0.0,-179.4032440185547,0.0
186626,74.44370849337429,0.0,0.0,0.0,0.0,-15.448323249816895,-68.00706481933594,0.0018819808028638363,0.0,-179.4032440185547,0.0
186627,74.45293292216957,0.0,0.0,0.0,0.0,-15.448323249816895,-68.00706481933594,0.0018819808028638363,0.0,-179.4032440185547,0.0
186628,74.46257405728102,0.0,0.0,0.0,0.0,-15.448323249816895,-68.00706481933594,0.0018819808028638363,0.0,-179.4032440185547,0.0
186629,74.47170736268163,0.0,0.0,0.0,0.0,-15.448323249816895,-68.00706481933594,0.0018819808028638363,0.0,-179.4032440185547,0.0
186630,74.48077669925988,0.0,0.0,0.0,0.0,-15.448323249816895,-68.00706481933594,0.0018819808028638363,0.0,-179.4032440185547,0.0
186631,74.49008909519762,0.0,0.0,0.0,0.0,-15.448323249816895,-68.00706481933594,0.0018819808028638363,0.0,-179.4032440185547,0.0
186632,74.49934846628457,0.0,0.0,0.0,0.0,-15.448323249816895,-68.00706481933594,0.0018819808028638363,0.0,-179.4032440185547,0.0
186633,74.50889241974801,0.0,0.0,0.0,0.0,-15.448323249816895,-68.00706481933594,0.0018819808028638363,0.0,-179.4032440185547,0.0
186634,74.51855296641588,0.0,0.0,0.0,0.0,-15.448323249816895,-68.00706481933594,0.0018819808028638363,0.0,-179.4032440185547,0.0
186635,74.52787309978157,0.0,0.0,0.0,0.0,-15.448323249816895,-68.00706481933594,0.0018819808028638363,0.0,-179.4032440185547,0.0
186636,74.53728669974953,0.0,0.0,0.0,0.0,-15.448323249816895,-68.00706481933594,0.0018819808028638363,0.0,-179.4032440185547,0.0
186637,74.54639931861311,0.0,0.0,0.0,0.0,-15.448323249816895,-68.00706481933594,0.0018819808028638363,0.0,-179.4032440185547,0.0
186638,74.55578244663775,0.0,0.0,0.0,0.0,-15.448323249816895,-68.00706481933594,0.0018819808028638363,0.0,-179.4032440185547,0.0
186639,74.565280190669,0.0,0.0,0.0,0.0,-15.448323249816895,-68.00706481933594,0.0018819808028638363,0.0,-179.4032440185547,0.0
186640,74.57448021229357,0.0,0.0,0.0,0.0,-15.448323249816895,-68.00706481933594,0.0018819808028638363,0.0,-179.4032440185547,0.0
186641,74.58383085858077,0.0,0.0,0.0,0.0,-15.448323249816895,-68.00706481933594,0.0018819808028638363,0.0,-179.4032440185547,0.0
186642,74.59329476300627,0.0,0.0,0.0,0.0,-15.448323249816895,-68.00706481933594,0.0018819808028638363,0.0,-179.4032440185547,0.0
186643,74.60290820058435,0.0,0.0,0.0,0.0,-15.448323249816895,-68.00706481933594,0.0018819808028638363,0.0,-179.4032440185547,0.0
186644,74.61234951484948,0.0,0.0,0.0,0.0,-15.448323249816895,-68.00706481933594,0.0018819808028638363,0.0,-179.4032440185547,0.0
186645,74.62155701685697,0.0,0.0,0.0,0.0,-15.448323249816895,-68.00706481933594,0.0018819808028638363,0.0,-179.4032440185547,0.0
186646,74.6311437021941,0.0,0.0,0.0,0.0,-15.448323249816895,-68.00706481933594,0.0018819808028638363,0.0,-179.4032440185547,0.0
186647,74.6398965800181,0.0,0.0,0.0,0.0,-15.448323249816895,-68.00706481933594,0.0018819808028638363,0.0,-179.4032440185547,0.0
186648,74.64950634073466,0.0,0.0,0.0,0.0,-15.448323249816895,-68.00706481933594,0.0018819808028638363,0.0,-179.4032440185547,0.0
186649,74.65876337978989,0.0,0.0,0.0,0.0,-15.448323249816895,-68.00706481933594,0.0018819808028638363,0.0,-179.4032440185547,0.0
186650,74.66849673632532,0.0,0.0,0.0,0.0,-15.448323249816895,-68.00706481933594,0.0018819808028638363,0.0,-179.4032440185547,0.0
186651,74.67752864770591,0.0,0.0,0.0,0.0,-15.448323249816895,-68.00706481933594,0.0018819808028638363,0.0,-179.4032440185547,0.0
186652,74.68689368572086,0.0,0.0,0.0,0.0,-15.448323249816895,-68.00706481933594,0.0018819808028638363,0.0,-179.4032440185547,0.0
186653,74.69738375768065,0.0,0.0,0.0,0.0,-15.448323249816895,-68.00706481933594,0.0018819808028638363,0.0,-179.4032440185547,0.0
186654,74.70752305909991,0.0,0.0,0.0,0.0,-15.448323249816895,-68.00706481933594,0.0018819808028638363,0.0,-179.4032440185547,0.0
186655,74.71713927388191,0.0,0.0,0.0,0.0,-15.448323249816895,-68.00706481933594,0.0018819808028638363,0.0,-179.4032440185547,0.0
186656,74.73033658508211,0.0,0.0,0.0,0.0,-15.448323249816895,-68.00706481933594,0.0018819808028638363,0.0,-179.4032440185547,0.0
186657,74.74029588699341,0.0,0.0,0.0,0.0,-15.448323249816895,-68.00706481933594,0.0018819808028638363,0.0,-179.4032440185547,0.0
186658,74.74982416443527,0.0,0.0,0.0,0.0,-15.448323249816895,-68.00706481933594,0.0018819808028638363,0.0,-179.4032440185547,0.0
186659,74.7591165304184,0.0,0.0,0.0,0.0,-15.448323249816895,-68.00706481933594,0.0018819808028638363,0.0,-179.4032440185547,0.0
186660,74.7682310687378,0.0,0.0,0.0,0.0,-15.448323249816895,-68.00706481933594,0.0018819808028638363,0.0,-179.4032440185547,0.0
186661,74.77737726457417,0.0,0.0,0.0,0.0,-15.448323249816895,-68.00706481933594,0.0018819808028638363,0.0,-179.4032440185547,0.0
186662,74.78665629401803,0.0,0.0,0.0,0.0,-15.448323249816895,-68.00706481933594,0.0018819808028638363,0.0,-179.4032440185547,0.0
186663,74.79592808429152,0.0,0.0,0.0,0.0,-15.448323249816895,-68.00706481933594,0.0018819808028638363,0.0,-179.4032440185547,0.0
186664,74.80545308627188,0.0,0.0,0.0,0.0,-15.448323249816895,-68.00706481933594,0.0018819808028638363,0.0,-179.4032440185547,0.0
186665,74.81469610426575,0.0,0.0,0.0,0.0,-15.448323249816895,-68.00706481933594,0.0018819808028638363,0.0,-179.4032440185547,0.0
186666,74.82416441850364,0.0,0.0,0.0,0.0,-15.448323249816895,-68.00706481933594,0.0018819808028638363,0.0,-179.4032440185547,0.0
186667,74.83341713715345,0.0,0.0,0.0,0.0,-15.448323249816895,-68.00706481933594,0.0018819808028638363,0.0,-179.4032440185547,0.0
186668,74.84261720161885,0.0,0.0,0.0,0.0,-15.448323249816895,-68.00706481933594,0.0018819808028638363,0.0,-179.4032440185547,0.0
186669,74.8516746899113,0.0,0.0,0.0,0.0,-15.448323249816895,-68.00706481933594,0.0018819808028638363,0.0,-179.4032440185547,0.0
186670,74.86088876891881,0.0,0.0,0.0,0.0,-15.448323249816895,-68.00706481933594,0.0018819808028638363,0.0,-179.4032440185547,0.0
186671,74.87024679966271,0.0,0.0,0.0,0.0,-15.448323249816895,-68.00706481933594,0.0018819808028638363,0.0,-179.4032440185547,0.0
186672,74.88268905226141,0.0,0.0,0.0,0.0,-15.448323249816895,-68.00706481933594,0.0018819808028638363,0.0,-179.4032440185547,0.0
186673,74.89207749906927,0.0,0.0,0.0,0.0,-15.448323249816895,-68.00706481933594,0.0018819808028638363,0.0,-179.4032440185547,0.0
186674,74.90145047847182,0.0,0.0,0.0,0.0,-15.448323249816895,-68.00706481933594,0.0018819808028638363,0.0,-179.4032440185547,0.0
186675,74.91066061053425,0.0,0.0,0.0,0.0,-15.448323249816895,-68.00706481933594,0.0018819808028638363,0.0,-179.4032440185547,0.0
186676,74.92003933992237,0.0,0.0,0.0,0.0,-15.448323249816895,-68.00706481933594,0.0018819808028638363,0.0,-179.4032440185547,0.0
186677,74.92916683666408,0.0,0.0,0.0,0.0,-15.448323249816895,-68.00706481933594,0.0018819808028638363,0.0,-179.4032440185547,0.0
186678,74.9385334039107,0.0,0.0,0.0,0.0,-15.448323249816895,-68.00706481933594,0.0018819808028638363,0.0,-179.4032440185547,0.0
186679,74.94777839165181,0.0,0.0,0.0,0.0,-15.448323249816895,-68.00706481933594,0.0018819808028638363,0.0,-179.4032440185547,0.0
186680,74.95712900720537,0.0,0.0,0.0,0.0,-15.448323249816895,-68.00706481933594,0.0018819808028638363,0.0,-179.4032440185547,0.0
186681,74.96635573823005,0.0,0.0,0.0,0.0,-15.448323249816895,-68.00706481933594,0.0018819808028638363,0.0,-179.4032440185547,0.0
186682,74.97560543380678,0.0,0.0,0.0,0.0,-15.448323249816895,-68.00706481933594,0.0018819808028638363,0.0,-179.4032440185547,0.0
186683,74.98491970170289,0.0,0.0,0.0,0.0,-15.448323249816895,-68.00706481933594,0.0018819808028638363,0.0,-179.4032440185547,0.0
186684,74.99467303510755,0.0,0.0,0.0,0.0,-15.448323249816895,-68.00706481933594,0.0018819808028638363,0.0,-179.4032440185547,0.0
186685,75.00382229592651,0.0,0.0,0.0,0.0,-15.448323249816895,-68.00706481933594,0.0018819808028638363,0.0,-179.4032440185547,0.0
186686,75.01290190219879,0.0,0.0,0.0,0.0,-15.448323249816895,-68.00706481933594,0.0018819808028638363,0.0,-179.4032440185547,0.0
186687,75.02210440300405,0.0,0.0,0.0,0.0,-15.448323249816895,-68.00706481933594,0.0018819808028638363,0.0,-179.4032440185547,0.0
186688,75.03130399435759,0.0,0.0,0.0,0.0,-15.448323249816895,-68.00706481933594,0.0018819808028638363,0.0,-179.4032440185547,0.0
186689,75.04057585727423,0.0,0.0,0.0,0.0,-15.448323249816895,-68.00706481933594,0.0018819808028638363,0.0,-179.4032440185547,0.0
186690,75.04998897667974,0.0,0.0,0.0,0.0,-15.448323249816895,-68.00706481933594,0.0018819808028638363,0.0,-179.4032440185547,0.0
186691,75.05913718510419,0.0,0.0,0.0,0.0,-15.448323249816895,-68.00706481933594,0.0018819808028638363,0.0,-179.4032440185547,0.0
186692,75.06832886487246,0.0,0.0,0.0,0.0,-15.448323249816895,-68.00706481933594,0.0018819808028638363,0.0,-179.4032440185547,0.0
186693,75.07759036216885,0.0,0.0,0.0,0.0,-15.448323249816895,-68.00706481933594,0.0018819808028638363,0.0,-179.4032440185547,0.0
186694,75.08665285818279,0.0,0.0,0.0,0.0,-15.448323249816895,-68.00706481933594,0.0018819808028638363,0.0,-179.4032440185547,0.0
186695,75.09582088515162,0.0,0.0,0.0,0.0,-15.448323249816895,-68.00706481933594,0.0018819808028638363,0.0,-179.4032440185547,0.0
186696,75.10504197329283,0.0,0.0,0.0,0.0,-15.448323249816895,-68.00706481933594,0.0018819808028638363,0.0,-179.4032440185547,0.0
186697,75.11422488745302,0.0,0.0,0.0,0.0,-15.448323249816895,-68.00706481933594,0.0018819808028638363,0.0,-179.4032440185547,0.0
186698,75.12389252148569,0.0,0.0,0.0,0.0,-15.448323249816895,-68.00706481933594,0.0018819808028638363,0.0,-179.4032440185547,0.0
186699,75.13305767811835,0.0,0.0,0.0,0.0,-15.448323249816895,-68.00706481933594,0.0018819808028638363,0.0,-179.4032440185547,0.0
186700,75.14230710547417,0.0,0.0,0.0,0.0,-15.448323249816895,-68.00706481933594,0.0018819808028638363,0.0,-179.4032440185547,0.0
186701,75.15163382701576,0.0,0.0,0.0,0.0,-15.448323249816895,-68.00706481933594,0.0018819808028638363,0.0,-179.4032440185547,0.0
186702,75.16087835188955,0.0,0.0,0.0,0.0,-15.448323249816895,-68.00706481933594,0.0018819808028638363,0.0,-179.4032440185547,0.0
186703,75.17012691311538,0.0,0.0,0.0,0.0,-15.448323249816895,-68.00706481933594,0.0018819808028638363,0.0,-179.4032440185547,0.0
186704,75.17944466043264,0.0,0.0,0.0,0.0,-15.448323249816895,-68.00706481933594,0.0018819808028638363,0.0,-179.4032440185547,0.0
186705,75.18899030517787,0.0,0.0,0.0,0.0,-15.448323249816895,-68.00706481933594,0.0018819808028638363,0.0,-179.4032440185547,0.0
186706,75.19845060631633,0.0,0.0,0.0,0.0,-15.448323249816895,-68.00706481933594,0.0018819808028638363,0.0,-179.4032440185547,0.0
186707,75.21062679775059,0.0,0.0,0.0,0.0,-15.448323249816895,-68.00706481933594,0.0018819808028638363,0.0,-179.4032440185547,0.0
186708,75.21998259332031,0.0,0.0,0.0,0.0,-15.448323249816895,-68.00706481933594,0.0018819808028638363,0.0,-179.4032440185547,0.0
186709,75.22932863701135,0.0,0.0,0.0,0.0,-15.448323249816895,-68.00706481933594,0.0018819808028638363,0.0,-179.4032440185547,0.0
186710,75.23851828090847,0.0,0.0,0.0,0.0,-15.448323249816895,-68.00706481933594,0.0018819808028638363,0.0,-179.4032440185547,0.0
186711,75.2481916192919,0.0,0.0,0.0,0.0,-15.448323249816895,-68.00706481933594,0.0018819808028638363,0.0,-179.4032440185547,0.0
186712,75.25751449167728,0.0,0.0,0.0,0.0,-15.448323249816895,-68.00706481933594,0.0018819808028638363,0.0,-179.4032440185547,0.0
186713,75.2696894062683,0.0,0.0,0.0,0.0,-15.448323249816895,-68.00706481933594,0.0018819808028638363,0.0,-179.4032440185547,0.0
186714,75.27898363117129,0.0,0.0,0.0,0.0,-15.448323249816895,-68.00706481933594,0.0018819808028638363,0.0,-179.4032440185547,0.0
186715,75.28809903841466,0.0,0.0,0.0,0.0,-15.448323249816895,-68.00706481933594,0.0018819808028638363,0.0,-179.4032440185547,0.0
186716,75.29719337355345,0.0,0.0,0.0,0.0,-15.448323249816895,-68.00706481933594,0.0018819808028638363,0.0,-179.4032440185547,0.0
186717,75.3069610837847,0.0,0.0,0.0,0.0,-15.448323249816895,-68.00706481933594,0.0018819808028638363,0.0,-179.4032440185547,0.0
186718,75.31629940215498,0.0,0.0,0.0,0.0,-15.448323249816895,-68.00706481933594,0.0018819808028638363,0.0,-179.4032440185547,0.0
186719,75.32890387624502,0.0,0.0,0.0,0.0,-15.448323249816895,-68.00706481933594,0.0018819808028638363,0.0,-179.4032440185547,0.0
186720,75.33827779628336,0.0,0.0,0.0,0.0,-15.448323249816895,-68.00706481933594,0.0018819808028638363,0.0,-179.4032440185547,0.0
186721,75.34747206885368,0.0,0.0,0.0,0.0,-15.448323249816895,-68.00706481933594,0.0018819808028638363,0.0,-179.4032440185547,0.0
186722,75.35648855287582,0.0,0.0,0.0,0.0,-15.448323249816895,-68.00706481933594,0.0018819808028638363,0.0,-179.4032440185547,0.0
186723,75.3659959146753,0.0,0.0,0.0,0.0,-15.448323249816895,-68.00706481933594,0.0018819808028638363,0.0,-179.4032440185547,0.0
186724,75.37521568592638,0.0,0.0,0.0,0.0,-15.448323249816895,-68.00706481933594,0.0018819808028638363,0.0,-179.4032440185547,0.0
186725,75.38725836295635,0.0,0.0,0.0,0.0,-15.448323249816895,-68.00706481933594,0.0018819808028638363,0.0,-179.4032440185547,0.0
186726,75.39651326555759,0.0,0.0,0.0,0.0,-15.448323249816895,-68.00706481933594,0.0018819808028638363,0.0,-179.4032440185547,0.0
186727,75.40559507720172,0.0,0.0,0.0,0.0,-15.448323249816895,-68.00706481933594,0.0018819808028638363,0.0,-179.4032440185547,0.0
186728,75.4148892601952,0.0,0.0,0.0,0.0,-15.448323249816895,-68.00706481933594,0.0018819808028638363,0.0,-179.4032440185547,0.0
186729,75.42410770244896,0.0,0.0,0.0,0.0,-15.448323249816895,-68.00706481933594,0.0018819808028638363,0.0,-179.4032440185547,0.0
186730,75.4334576567635,0.0,0.0,0.0,0.0,-15.448323249816895,-68.00706481933594,0.0018819808028638363,0.0,-179.4032440185547,0.0
186731,75.44252196047455,0.0,0.0,0.0,0.0,-15.448323249816895,-68.00706481933594,0.0018819808028638363,0.0,-179.4032440185547,0.0
186732,75.45186616200954,0.0,0.0,0.0,0.0,-15.448323249816895,-68.00706481933594,0.0018819808028638363,0.0,-179.4032440185547,0.0
186733,75.46109996922314,0.0,0.0,0.0,0.0,-15.448323249816895,-68.00706481933594,0.0018819808028638363,0.0,-179.4032440185547,0.0
186734,75.47038777079433,0.0,0.0,0.0,0.0,-15.448323249816895,-68.00706481933594,0.0018819808028638363,0.0,-179.4032440185547,0.0
186735,75.47969180066139,0.0,0.0,0.0,0.0,-15.448323249816895,-68.00706481933594,0.0018819808028638363,0.0,-179.4032440185547,0.0
186736,75.48904374800622,0.0,0.0,0.0,0.0,-15.448323249816895,-68.00706481933594,0.0018819808028638363,0.0,-179.4032440185547,0.0
186737,75.49821343366057,0.0,0.0,0.0,0.0,-15.448323249816895,-68.00706481933594,0.0018819808028638363,0.0,-179.4032440185547,0.0
186738,75.50767776183784,0.0,0.0,0.0,0.0,-15.448323249816895,-68.00706481933594,0.0018819808028638363,0.0,-179.4032440185547,0.0
186739,75.5173551607877,0.0,0.0,0.0,0.0,-15.448323249816895,-68.00706481933594,0.0018819808028638363,0.0,-179.4032440185547,0.0
186740,75.52689708024263,0.0,0.0,0.0,0.0,-15.448323249816895,-68.00706481933594,0.0018819808028638363,0.0,-179.4032440185547,0.0
186741,75.5361922904849,0.0,0.0,0.0,0.0,-15.448323249816895,-68.00706481933594,0.0018819808028638363,0.0,-179.4032440185547,0.0
186742,75.54541677050292,0.0,0.0,0.0,0.0,-15.448323249816895,-68.00706481933594,0.0018819808028638363,0.0,-179.4032440185547,0.0
186743,75.55475642252713,0.0,0.0,0.0,0.0,-15.448323249816895,-68.00706481933594,0.0018819808028638363,0.0,-179.4032440185547,0.0
186744,75.56424819584936,0.0,0.0,0.0,0.0,-15.448323249816895,-68.00706481933594,0.0018819808028638363,0.0,-179.4032440185547,0.0
186745,75.57660316955298,0.0,0.0,0.0,0.0,-15.448323249816895,-68.00706481933594,0.0018819808028638363,0.0,-179.4032440185547,0.0
186746,75.58592628967017,0.0,0.0,0.0,0.0,-15.448323249816895,-68.00706481933594,0.0018819808028638363,0.0,-179.4032440185547,0.0
186747,75.59522025194019,0.0,0.0,0.0,0.0,-15.448323249816895,-68.00706481933594,0.0018819808028638363,0.0,-179.4032440185547,0.0
186748,75.60468448419124,0.0,0.0,0.0,0.0,-15.448323249816895,-68.00706481933594,0.0018819808028638363,0.0,-179.4032440185547,0.0
186749,75.6139938654378,0.0,0.0,0.0,0.0,-15.448323249816895,-68.00706481933594,0.0018819808028638363,0.0,-179.4032440185547,0.0
186750,75.6233974294737,0.0,0.0,0.0,0.0,-15.448323249816895,-68.00706481933594,0.0018819808028638363,0.0,-179.4032440185547,0.0
186751,75.63552252203226,0.0,0.0,0.0,0.0,-15.448323249816895,-68.00706481933594,0.0018819808028638363,0.0,-179.4032440185547,0.0
186752,75.64496182184666,0.0,0.0,0.0,0.0,-15.448323249816895,-68.00706481933594,0.0018819808028638363,0.0,-179.4032440185547,0.0
186753,75.6546440711245,0.0,0.0,0.0,0.0,-15.448323249816895,-68.00706481933594,0.0018819808028638363,0.0,-179.4032440185547,0.0
186754,75.66470754053444,0.0,0.0,0.0,0.0,-15.448323249816895,-68.00706481933594,0.0018819808028638363,0.0,-179.4032440185547,0.0
186755,75.67522865720093,0.0,0.0,0.0,0.0,-15.448323249816895,-68.00706481933594,0.0018819808028638363,0.0,-179.4032440185547,0.0
186756,75.68471036851406,0.0,0.0,0.0,0.0,-15.448323249816895,-68.00706481933594,0.0018819808028638363,0.0,-179.4032440185547,0.0
186757,75.69506932608783,0.0,0.0,0.0,0.0,-15.448323249816895,-68.00706481933594,0.0018819808028638363,0.0,-179.4032440185547,0.0
186758,75.70528565347195,0.0,0.0,0.0,0.0,-15.448323249816895,-68.00706481933594,0.0018819808028638363,0.0,-179.4032440185547,0.0
186759,75.71513798087835,0.0,0.0,0.0,0.0,-15.448323249816895,-68.00706481933594,0.0018819808028638363,0.0,-179.4032440185547,0.0
186760,75.72460834961385,0.0,0.0,0.0,0.0,-15.448323249816895,-68.00706481933594,0.0018819808028638363,0.0,-179.4032440185547,0.0
186761,75.73490307107568,0.0,0.0,0.0,0.0,-15.448323249816895,-68.00706481933594,0.0018819808028638363,0.0,-179.4032440185547,0.0
186762,75.74505761172622,0.0,0.0,0.0,0.0,-15.448323249816895,-68.00706481933594,0.0018819808028638363,0.0,-179.4032440185547,0.0
186763,75.75440083537251,0.0,0.0,0.0,0.0,-15.448323249816895,-68.00706481933594,0.0018819808028638363,0.0,-179.4032440185547,0.0
186764,75.7640868211165,0.0,0.0,0.0,0.0,-15.448323249816895,-68.00706481933594,0.0018819808028638363,0.0,-179.4032440185547,0.0
186765,75.77352310810238,0.005208186805532174,0.8500000238418579,0.03641247749328613,0.0,-15.448323249816895,-68.00706481933594,0.001833686837926507,0.0,-179.4032440185547,0.0
186766,75.78279681131244,0.004400606267382118,0.8500000238418579,0.03641247749328613,0.0,-15.448323249816895,-68.00706481933594,0.0017926024738699198,0.0,-179.4032440185547,0.0
186767,75.79213190544397,0.002855844331127366,0.8500000238418579,0.03641247749328613,0.0,-15.448323249816895,-68.00706481933594,0.001729888841509819,0.0,-179.4032440185547,0.0
186768,75.80162957310677,0.0022202206310661496,0.8500000238418579,0.026017270982265472,0.0,-15.448323249816895,-68.00706481933594,0.0017093276837840676,0.0,-179.4032440185547,0.0
186769,75.81093104649335,0.0022202206310661496,0.8500000238418579,0.026017270982265472,0.0,-15.448323249816895,-68.00706481933594,0.0017093276837840676,0.0,-179.4032440185547,0.0
186770,75.82018594723195,0.0011779308553391946,0.8500000238418579,0.026017270982265472,0.0,-15.448323249816895,-68.00706481933594,0.001681594760157168,0.0,-179.4032440185547,0.0
186771,75.82951795961708,0.0011779308553391946,0.8500000238418579,0.026017270982265472,0.0,-15.448323249816895,-68.00706481933594,0.001681594760157168,0.0,-179.4032440185547,0.0
186772,75.83868611976504,0.0027819061652816332,0.8500000238418579,0.026017270982265472,0.0,-15.448323249816895,-68.00706481933594,0.0017103957943618298,0.0,-179.4032440185547,0.0
186773,75.8488013073802,0.0006274795180997822,0.8500000238418579,0.026017270982265472,0.0,-15.448323249816895,-68.00706481933594,0.0016928863478824496,0.0,-179.4032440185547,0.0
186774,75.85812768246979,0.0030371570029276633,0.8500000238418579,0.026017270982265472,0.0,-15.448323249816895,-68.00706481933594,0.001725273090414703,0.0,-179.4032440185547,0.0
186775,75.86720677930862,0.0014421462548165414,0.8500000238418579,0.026017270982265472,0.0,-15.448323249816895,-68.00706481933594,0.0017112731002271175,0.0,-179.4032440185547,0.0
186776,75.87757300119847,0.0009321307900458128,0.8500000238418579,0.026017270982265472,0.0,-15.448323249816895,-68.00706481933594,0.0017023467225953937,0.0,-179.4032440185547,0.0
186777,75.88727377913892,0.0009321307900458128,0.8500000238418579,0.026017270982265472,0.0,-15.448323249816895,-68.00706481933594,0.0017023467225953937,0.0,-179.4032440185547,0.0
186778,75.89686533436179,0.00032273292975041495,0.8500000238418579,0.026017270982265472,0.0,-15.448323249816895,-68.00706481933594,0.0016993331955745816,0.0,-179.4032440185547,0.0
186779,75.90619931928813,5.620957011416466e-05,0.8500000238418579,0.026017270982265472,0.0,-15.448323249816895,-68.00706481933594,0.0016976165352389216,0.0,-179.4032440185547,0.0
186780,75.9155837399885,5.620957011416466e-05,0.8500000238418579,0.026017270982265472,0.0,-15.448323249816895,-68.00706481933594,0.0016976165352389216,0.0,-179.4032440185547,0.0
186781,75.92501231934875,0.003036355832629408,0.8500000238418579,0.026017270982265472,0.0,-15.448323249816895,-68.00706481933594,0.0017370604909956455,0.0,-179.4032440185547,0.0
186782,75.93770878110081,0.0004499721400929181,0.8500000238418579,0.026017270982265472,0.0,-15.448323249816895,-68.00706481933594,0.001732788048684597,0.0,-179.4032440185547,0.0
186783,75.94723707064986,0.0001463508598738877,0.8500000238418579,0.026017270982265472,0.0,-15.448323249816895,-68.00706481933594,0.0017314148135483265,0.0,-179.4032440185547,0.0
186784,75.95667613204569,0.00030473707445948433,0.8500000238418579,0.026017270982265472,0.0,-15.448323249816895,-68.00706481933594,0.0017341232160106301,0.0,-179.4032440185547,0.0
186785,75.9661283781752,0.0006681537504001283,0.8500000238418579,0.026017270982265472,0.0,-15.448323249816895,-68.00706481933594,0.0017401885706931353,0.0,-179.4032440185547,0.0
186786,75.97542289458215,0.0004901886000446496,0.8500000238418579,0.026017270982265472,0.0,-15.448323249816895,-68.00706481933594,0.0017446898855268955,0.0,-179.4032440185547,0.0
186787,75.98447607830167,0.0007693767551782776,0.8500000238418579,0.026017270982265472,0.0,-15.448323249816895,-68.00706481933594,0.0017516326624900103,0.0,-179.4032440185547,0.0
186788,75.99369470402598,0.0007693767551782776,0.8500000238418579,0.026017270982265472,0.0,-15.448323249816895,-68.00706481933594,0.0017516326624900103,0.0,-179.4032440185547,0.0
186789,76.00271289795637,0.0005198383005721752,0.8500000238418579,0.026017270982265472,0.0,-15.448323249816895,-68.00706481933594,0.0017624663887545466,0.0,-179.4032440185547,0.0
186790,76.01181867532432,0.0005198383005721752,0.8500000238418579,0.026017270982265472,0.0,-15.448323249816895,-68.00706481933594,0.0017624663887545466,0.0,-179.4032440185547,0.0
186791,76.02104906737804,0.0005070972279764982,0.8500000238418579,0.026017270982265472,0.0,-15.448323249816895,-68.00706481933594,0.0017696762224659324,0.0,-179.4032440185547,0.0
186792,76.03050847910345,0.0005070972279764982,0.8500000238418579,0.026017270982265472,0.0,-15.448323249816895,-68.00706481933594,0.0017696762224659324,0.0,-179.4032440185547,0.0
186793,76.03981465194374,0.0005528640520335999,0.8500000238418579,0.026017270982265472,0.0,-15.448323249816895,-68.00706481933594,0.0017774581210687757,0.0,-179.4032440185547,0.0
186794,76.04932188428938,0.0005528640520335999,0.8500000238418579,0.026017270982265472,0.0,-15.448323249816895,-68.00706481933594,0.0017774581210687757,0.0,-179.4032440185547,0.0
186795,76.05864464212209,0.00019118310571161458,0.8500000238418579,0.026017270982265472,0.0,-15.448323249816895,-68.00706481933594,0.0017792892176657915,0.0,-179.4032440185547,0.0
186796,76.06826413422823,0.0006516551955583997,0.8500000238418579,0.026017270982265472,0.0,-15.448323249816895,-68.00706481933594,0.0017853545723482966,0.0,-179.4032440185547,0.0
186797,76.07755414489657,0.0001892852782889466,0.8500000238418579,0.026017270982265472,0.0,-15.448323249816895,-68.00706481933594,0.0017871856689453125,0.0,-179.4032440185547,0.0
186798,76.08720460068434,0.0005851459576997818,0.8500000238418579,0.026017270982265472,0.0,-15.448323249816895,-68.00706481933594,0.0017983627039939165,0.0,-179.4032440185547,0.0
186799,76.09655557852238,0.0005851459576997818,0.8500000238418579,0.026017270982265472,0.0,-15.448323249816895,-68.00706481933594,0.0017983627039939165,0.0,-179.4032440185547,0.0
186800,76.10591164790094,0.0004134750351880649,0.8500000238418579,0.026017270982265472,0.0,-15.448323249816895,-68.00706481933594,0.0018022918375208974,0.0,-179.4032440185547,0.0
186801,76.11539222020656,0.00021295546500230684,0.8500000238418579,0.026017270982265472,0.0,-15.448323249816895,-68.00706481933594,0.001804351806640625,0.0,-179.4032440185547,0.0
186802,76.12503637932241,0.0005870055757789529,0.8500000238418579,0.026017270982265472,0.0,-15.448323249816895,-68.00706481933594,0.001816978445276618,0.0,-179.4032440185547,0.0
186803,76.13424689136446,0.0006992435097088712,0.8500000238418579,0.026017270982265472,0.0,-15.448323249816895,-68.00706481933594,0.00182342529296875,0.0,-179.4032440185547,0.0
186804,76.14357113838196,0.0006992435097088712,0.8500000238418579,0.026017270982265472,0.0,-15.448323249816895,-68.00706481933594,0.00182342529296875,0.0,-179.4032440185547,0.0
186805,76.15277769509703,0.00032727239920333985,0.8500000238418579,0.026017270982265472,0.0,-15.448323249816895,-68.00706481933594,0.0018265151884406805,0.0,-179.4032440185547,0.0
186806,76.16224752180278,8.98838175148857e-05,0.8500000238418579,0.026017270982265472,0.0,-15.448323249816895,-68.00706481933594,0.001830253517255187,0.0,-179.4032440185547,0.0
186807,76.17165936995298,8.98838175148857e-05,0.8500000238418579,0.026017270982265472,0.0,-15.448323249816895,-68.00706481933594,0.001830253517255187,0.0,-179.4032440185547,0.0
186808,76.18145066872239,0.0,0.8500000238418579,0.026017270982265472,0.0,-15.448323249816895,-68.00706481933594,0.001830253517255187,0.0,-179.4032440185547,0.0
186809,76.19069245830178,0.0005039501125380482,0.8500000238418579,0.026017270982265472,0.0,-15.448323249816895,-68.00706481933594,0.0018335724016651511,0.0,-179.4032440185547,0.0
186810,76.20007039513439,0.0005039501125380482,0.8500000238418579,0.026017270982265472,0.0,-15.448323249816895,-68.00706481933594,0.0018335724016651511,0.0,-179.4032440185547,0.0
186811,76.2090463032946,8.813857868811532e-05,0.8500000238418579,0.026017270982265472,0.0,-15.448323249816895,-68.00706481933594,0.0018335724016651511,0.0,-179.4032440185547,0.0
186812,76.21849771775305,0.0004192256892721499,0.8500000238418579,0.026017270982265472,0.0,-15.448323249816895,-68.00706481933594,0.001830787630751729,0.0,-179.4032440185547,0.0
186813,76.22773934807628,0.0004192256892721499,0.8500000238418579,0.026017270982265472,0.0,-15.448323249816895,-68.00706481933594,0.001830787630751729,0.0,-179.4032440185547,0.0
186814,76.23751675337553,0.0032377784620903857,0.8500000238418579,0.026017270982265472,0.0,-15.44835090637207,-68.00706481933594,0.0018305587582290173,0.0,-179.40341186523438,-6.103515261202119e-05
186815,76.24709579721093,0.25408261375145325,0.8500000238418579,0.026017270982265472,0.0,-15.450767517089844,-68.00712585449219,0.0018115997081622481,0.0035721887834370136,-179.40171813964844,-0.0003356933011673391
186816,76.25651311781257,0.3499576557095881,0.8500000238418579,0.026017270982265472,0.0,-15.45394229888916,-68.0072021484375,0.001796035678125918,0.007328792475163937,-179.39950561523438,-0.0006103516207076609
186817,76.26550990249962,0.642399922873851,0.8500000238418579,0.026017270982265472,0.0,-15.465176582336426,-68.00747680664062,0.0017410278087481856,0.01825709454715252,-179.39234924316406,-0.0012817379320040345
186818,76.27462655771524,0.642399922873851,0.8500000238418579,0.026017270982265472,0.0,-15.465176582336426,-68.00747680664062,0.0017410278087481856,0.01825709454715252,-179.39234924316406,-0.0012817379320040345
186819,76.28376314230263,1.0203694108987438,0.8500000238418579,0.026017270982265472,0.0,-15.48299503326416,-68.00790405273438,0.0016610336024314165,0.032463885843753815,-179.38140869140625,-0.002105712890625
186820,76.29331674799323,1.0203694108987438,0.8500000238418579,0.026017270982265472,0.0,-15.48299503326416,-68.00790405273438,0.0016610336024314165,0.032463885843753815,-179.38140869140625,-0.002105712890625
186821,76.30248718895018,1.345486548003727,0.8500000238418579,0.025792833417654037,0.0,-15.510002136230469,-68.00855255126953,0.001610450679436326,0.04826894402503967,-179.3656005859375,-0.0029602053109556437
186822,76.31178770493716,1.345486548003727,0.8500000238418579,0.025792833417654037,0.0,-15.510002136230469,-68.00855255126953,0.001610450679436326,0.04826894402503967,-179.3656005859375,-0.0029602053109556437
186823,76.3244836460799,1.4818078244366466,0.8500000238418579,0.025792833417654037,0.0,-15.524181365966797,-68.00890350341797,0.0015641403151676059,0.055167436599731445,-179.3572540283203,-0.0033264157827943563
186824,76.33402253687382,1.7289769326470694,0.8500000238418579,0.025281641632318497,0.0,-15.55611515045166,-68.00967407226562,0.0014808273408561945,0.06765984743833542,-179.3385009765625,-0.003997801803052425
186825,76.3432230874896,1.8394090614012297,0.8500000238418579,0.025281641632318497,0.0,-15.573125839233398,-68.01010131835938,0.0014499282697215676,0.072987399995327,-179.32940673828125,-0.004241943359375
186826,76.35310257412493,1.938046088060477,0.8500000238418579,0.025281641632318497,0.0,-15.590937614440918,-68.01052856445312,0.0014233016408979893,0.0777275487780571,-179.31777954101562,-0.004486083518713713
186827,76.3623327948153,1.938046088060477,0.8500000238418579,0.025281641632318497,0.0,-15.590937614440918,-68.01052856445312,0.0014233016408979893,0.0777275487780571,-179.31777954101562,-0.004486083518713713
186828,76.37150826770812,2.0225768467777954,0.8500000238418579,0.025281641632318497,0.0,-15.61046028137207,-68.01104736328125,0.0013943862868472934,0.08191445469856262,-179.3114471435547,-0.004669188521802425
186829,76.3811497008428,2.2691656309081476,0.8500000238418579,0.024392850697040558,0.0,-15.663116455078125,-68.01235961914062,0.001411018311046064,0.09073905646800995,-179.28236389160156,-0.005065917037427425
186830,76.39506690669805,2.3630675007959465,0.8500000238418579,0.024392850697040558,0.0,-15.687443733215332,-68.01296997070312,0.0014228057116270065,0.09366238117218018,-179.26905822753906,-0.005187986884266138
186831,76.40524766780436,2.4452830221044763,0.8500000238418579,0.024392850697040558,0.0,-15.710715293884277,-68.01356506347656,0.0013934706803411245,0.09586852788925171,-179.2564239501953,-0.005279539152979851
186832,76.41563957277685,2.4452830221044763,0.8500000238418579,0.024392850697040558,0.0,-15.710715293884277,-68.01356506347656,0.0013934706803411245,0.09586852788925171,-179.2564239501953,-0.005279539152979851
186833,76.4251531874761,2.5253041214268204,0.8500000238418579,0.023465540260076523,0.0,-15.735033988952637,-68.0141830444336,0.0013669967884197831,0.0977126806974411,-179.2434539794922,-0.005340574774891138
186834,76.43478144612163,2.5995613911178133,0.8500000238418579,0.023465540260076523,0.0,-15.759050369262695,-68.0147933959961,0.0013500595232471824,0.0991470217704773,-179.23077392578125,-0.005401610396802425
186835,76.44401970133185,2.676745191599841,0.8500000238418579,0.023465540260076523,0.0,-15.785740852355957,-68.01547241210938,0.0013259887928143144,0.10032864660024643,-179.21681213378906,-0.00543212890625
186836,76.4539913861081,2.770194263960742,0.8500000238418579,0.023465540260076523,0.0,-15.819917678833008,-68.016357421875,0.0013492965372279286,0.10144196450710297,-179.1990203857422,-0.005493163131177425
186837,76.46643429994583,2.9040869584829863,0.8500000238418579,0.022339578717947006,0.0,-15.873454093933105,-68.01773834228516,0.0013255691155791283,0.10223426669836044,-179.1719512939453,-0.005493163596838713
186838,76.47573419939727,2.9040869584829863,0.8500000238418579,0.022339578717947006,0.0,-15.873454093933105,-68.01773834228516,0.0013255691155791283,0.10223426669836044,-179.1719512939453,-0.005493163596838713
186839,76.48508653976023,2.9717624354513097,0.8500000238418579,0.022339578717947006,0.0,-15.902482986450195,-68.01848602294922,0.001311454689130187,0.1023162305355072,-179.157470703125,-0.005462644621729851
186840,76.49485773872584,3.098629380705551,0.8500000238418579,0.021131370216608047,0.0,-15.960419654846191,-68.0199966430664,0.0012997817248106003,0.10202252864837646,-179.1291961669922,-0.00543212890625
186841,76.50430459529161,3.098629380705551,0.8500000238418579,0.021131370216608047,0.0,-15.960419654846191,-68.0199966430664,0.0012997817248106003,0.10202252864837646,-179.1291961669922,-0.00543212890625
186842,76.51375479437411,3.160587916658989,0.8500000238418579,0.021131370216608047,0.0,-15.990391731262207,-68.02078247070312,0.0012963485205546021,0.1016673594713211,-179.11495971679688,-0.005371092818677425
186843,76.523242325522,3.2805842333122603,0.8500000238418579,0.021131370216608047,0.0,-16.051502227783203,-68.02239227294922,0.0012956619029864669,0.10067015141248703,-179.08633422851562,-0.005310058128088713
186844,76.53264148719609,3.2805842333122603,0.8500000238418579,0.021131370216608047,0.0,-16.051502227783203,-68.02239227294922,0.0012956619029864669,0.10067015141248703,-179.08633422851562,-0.005310058128088713
186845,76.54205035418272,3.3435508965811116,0.8500000238418579,0.019999893382191658,0.0,-16.085002899169922,-68.02327728271484,0.0013370894594118,0.10004177689552307,-179.07101440429688,-0.0052490234375
186846,76.55212267301977,3.4005361226123783,0.8500000238418579,0.019999893382191658,0.0,-16.116437911987305,-68.02410888671875,0.0013349151704460382,0.09934509545564651,-179.05691528320312,-0.005187987349927425
186847,76.56137143727392,3.458659066157998,0.8500000238418579,0.019999893382191658,0.0,-16.14937400817871,-68.02498626708984,0.0013308716006577015,0.09858011454343796,-179.04226684570312,-0.005157470237463713
186848,76.57089959736913,3.515953074177917,0.8500000238418579,0.019999893382191658,0.0,-16.182748794555664,-68.02587890625,0.0013285063905641437,0.09780147671699524,-179.027587890625,-0.005126953125
186849,76.5803968096152,3.5723556371891405,0.8500000238418579,0.018820736557245255,0.0,-16.216442108154297,-68.02677917480469,0.001328277518041432,0.09698185324668884,-179.0131072998047,-0.005035398527979851
186850,76.58983407076448,3.6866900436991963,0.8500000238418579,0.018820736557245255,0.0,-16.28730010986328,-68.0286865234375,0.0013246916932985187,0.09522648900747299,-178.98338317871094,-0.004943846724927425
186851,76.5993539635092,3.6866900436991963,0.8500000238418579,0.018820736557245255,0.0,-16.28730010986328,-68.0286865234375,0.0013246916932985187,0.09522648900747299,-178.98338317871094,-0.004943846724927425
186852,76.60921437945217,3.7413060647979903,0.8500000238418579,0.018820736557245255,0.0,-16.32231330871582,-68.0296401977539,0.001328430138528347,0.0943727195262909,-178.9688720703125,-0.004882811568677425
186853,76.61857853084803,3.7967747175959503,0.8500000238418579,0.017636744305491447,0.0,-16.358642578125,-68.03063201904297,0.0013304137391969562,0.0934847965836525,-178.95420837402344,-0.004821775946766138
186854,76.62815285939723,3.85286312067757,0.8500000238418579,0.017636744305491447,0.0,-16.396156311035156,-68.03164672851562,0.0013308334164321423,0.09258320927619934,-178.9393768310547,-0.0047607421875
186855,76.63789498806,3.9069492069418628,0.8500000238418579,0.017636744305491447,0.0,-16.43305206298828,-68.03266143798828,0.0013356399722397327,0.09172943234443665,-178.92495727539062,-0.00469970703125
186856,76.64734341949224,3.962128638293897,0.8500000238418579,0.017636744305491447,0.0,-16.47142791748047,-68.0337142944336,0.0013376998249441385,0.090855173766613,-178.91009521484375,-0.004669188987463713
186857,76.65703470632434,4.016322644545654,0.8500000238418579,0.016446197405457497,0.0,-16.50981330871582,-68.03477478027344,0.0013417815789580345,0.09000822901725769,-178.89561462402344,-0.004608154296875
186858,76.66659761033952,4.085755420136616,0.8500000238418579,0.016446197405457497,0.0,-16.559856414794922,-68.03614807128906,0.0013888167450204492,0.08895637840032578,-178.87713623046875,-0.004516600631177425
186859,76.67890424095094,4.1923148842348406,0.8500000238418579,0.016446197405457497,0.0,-16.639089584350586,-68.03836059570312,0.0013878250028938055,0.08735128492116928,-178.8484649658203,-0.00445556640625
186860,76.68860682472587,4.1923148842348406,0.8500000238418579,0.016446197405457497,0.0,-16.639089584350586,-68.03836059570312,0.0013878250028938055,0.08735128492116928,-178.8484649658203,-0.00445556640625
186861,76.69793537911028,4.297098253275529,0.8500000238418579,0.015288257971405983,0.0,-16.719491958618164,-68.04061126708984,0.0013910675188526511,0.08582815527915955,-178.82054138183594,-0.004333494696766138
186862,76.70740524865687,4.297098253275529,0.8500000238418579,0.015288257971405983,0.0,-16.719491958618164,-68.04061126708984,0.0013910675188526511,0.08582815527915955,-178.82054138183594,-0.004333494696766138
186863,76.71677130740136,4.349867751725208,0.8500000238418579,0.015288257971405983,0.0,-16.760927200317383,-68.04177856445312,0.0013919067569077015,0.08509732037782669,-178.80654907226562,-0.004272460006177425
186864,76.72630183119327,4.47094232813565,0.8500000238418579,0.014046944677829742,0.0,-16.85820960998535,-68.04454803466797,0.0014315032167360187,0.08350589126348495,-178.7743682861328,-0.004180908203125
186865,76.73888768721372,4.522666619854005,0.8500000238418579,0.014046944677829742,0.0,-16.900794982910156,-68.0457534790039,0.0014293669955804944,0.08285018801689148,-178.7608642578125,-0.004119873512536287
186866,76.7482665432617,4.522666619854005,0.8500000238418579,0.014046944677829742,0.0,-16.900794982910156,-68.0457534790039,0.0014293669955804944,0.08285018801689148,-178.7608642578125,-0.004119873512536287
186867,76.75768763292581,4.575558403004725,0.8500000238418579,0.014046944677829742,0.0,-16.944963455200195,-68.04701232910156,0.0014249419327825308,0.08220132440328598,-178.74708557128906,-0.004058837890625
186868,76.76734570413828,4.6269317339086555,0.8500000238418579,0.014046944677829742,0.0,-16.988433837890625,-68.04825592041016,0.0014248656807467341,0.08159343898296356,-178.7336883544922,-0.0040283203125
186869,76.77674582693726,4.678316781214189,0.8500000238418579,0.012843446806073189,0.0,-17.032487869262695,-68.04952239990234,0.0014246749924495816,0.08100604265928268,-178.72052001953125,-0.003967284224927425
186870,76.78616730961949,4.750830681286512,0.8500000238418579,0.012843446806073189,0.0,-17.095483779907227,-68.05133819580078,0.0014623642200604081,0.08022056519985199,-178.7022247314453,-0.003875732421875
186871,76.79948468785733,4.803056497410038,0.8500000238418579,0.012843446806073189,0.0,-17.141714096069336,-68.05268096923828,0.0014553070068359375,0.07966732233762741,-178.68905639648438,-0.00384521484375
186872,76.80911466106772,4.853767372013958,0.8500000238418579,0.012843446806073189,0.0,-17.18709945678711,-68.05399322509766,0.001452598487958312,0.07914822548627853,-178.67630004882812,-0.0038146967999637127
186873,76.81847024708986,4.904421427795104,0.8500000238418579,0.011834165081381798,0.0,-17.232990264892578,-68.05532836914062,0.0014508437598124146,0.0786496251821518,-178.66375732421875,-0.003753662807866931
186874,76.827831893228,4.9552173685896115,0.8500000238418579,0.011834165081381798,0.0,-17.279560089111328,-68.05668640136719,0.001448898226954043,0.0781715139746666,-178.6513671875,-0.003692626254633069
186875,76.83723497018218,5.008877952106059,0.8500000238418579,0.011834165081381798,0.0,-17.329378128051758,-68.05813598632812,0.0014406966511160135,0.07767290621995926,-178.6382598876953,-0.0036621084436774254
186876,76.84718600288033,5.061967614859977,0.8500000238418579,0.011834165081381798,0.0,-17.37868309020996,-68.05958557128906,0.0015019226120784879,0.07714015245437622,-178.62554931640625,-0.003601073520258069
186877,76.85693124681711,5.133224821837417,0.8500000238418579,0.010698418132960796,0.0,-17.44660186767578,-68.06158447265625,0.0015665054088458419,0.07651860266923904,-178.60861206054688,-0.0035400388296693563
186878,76.870215957053,5.181983161223723,0.8500000238418579,0.010698418132960796,0.0,-17.494050979614258,-68.06298065185547,0.0016038513276726007,0.07608146965503693,-178.5972442626953,-0.003448486328125
186879,76.87937731202692,5.235837953159609,0.8500000238418579,0.010698418132960796,0.0,-17.546274185180664,-68.06452178955078,0.001635971013456583,0.07569215446710587,-178.58485412597656,-0.0034179682843387127
186880,76.88938226178288,5.3388004450959095,0.8500000238418579,0.009611253626644611,0.0,-17.647445678710938,-68.0675277709961,0.0016837691655382514,0.07490667700767517,-178.561767578125,-0.003326416015625
186881,76.89873094297945,5.3388004450959095,0.8500000238418579,0.009611253626644611,0.0,-17.647445678710938,-68.0675277709961,0.0016837691655382514,0.07490667700767517,-178.561767578125,-0.003326416015625
186882,76.9084359491244,5.381931416956139,0.8500000238418579,0.009611253626644611,0.0,-17.69829750061035,-68.06903839111328,0.0017011261079460382,0.07446271926164627,-178.5504608154297,-0.0032348628155887127
186883,76.91788921598345,5.488058680328664,0.8500000238418579,0.009611253626644611,0.0,-17.815933227539062,-68.07256317138672,0.0017296599689871073,0.07333573698997498,-178.52540588378906,-0.0031738276593387127
186884,76.92994591873139,5.488058680328664,0.8500000238418579,0.009611253626644611,0.0,-17.815933227539062,-68.07256317138672,0.0017296599689871073,0.07333573698997498,-178.52540588378906,-0.0031738276593387127
186885,76.93947418686002,5.464136828340761,0.5810839533805847,0.008779170922935009,0.0,-17.86705207824707,-68.07408905029297,0.0017437362112104893,0.07187407463788986,-178.5149688720703,-0.0030517575796693563
186886,76.94883581064641,5.479078935546861,0.5810839533805847,0.008779170922935009,0.0,-17.918790817260742,-68.07564544677734,0.001758041325956583,0.07004358619451523,-178.50418090820312,-0.003021240234375
186887,76.95828541740775,5.477269422548212,0.5810839533805847,0.008779170922935009,0.0,-17.96976089477539,-68.07718658447266,0.0017719268798828125,0.068008191883564,-178.4945831298828,-0.0028991696890443563
186888,76.96759809460491,5.511438748787115,0.5810839533805847,0.008779170922935009,0.0,-18.021724700927734,-68.0787582397461,0.0017837142804637551,0.06608890742063522,-178.48434448242188,-0.0028991696890443563
186889,76.97703334316611,5.537570997343916,0.2530411183834076,-0.011956925503909588,0.0,-18.1252384185791,-68.08169555664062,0.001806182786822319,0.0619361512362957,-178.47525024414062,-0.0010986330453306437
186890,76.9861038159579,5.5198708827532235,0.2530411183834076,-0.011956925503909588,0.0,-18.17876625061035,-68.08313751220703,0.0018175888108089566,0.05956607684493065,-178.4752655029297,6.798113463446498e-05
186891,76.99580326490104,5.5198708827532235,0.2530411183834076,-0.011956925503909588,0.0,-18.17876625061035,-68.08313751220703,0.0018175888108089566,0.05956607684493065,-178.4752655029297,6.798113463446498e-05
186892,77.00550706125796,5.5477031787651825,0.2530411183834076,-0.011956925503909588,0.0,-18.230804443359375,-68.08448791503906,0.0018268584972247481,0.05751701816916466,-178.47816467285156,0.0012803764548152685
186893,77.01489316299558,5.572218185568182,0.12339279055595398,-0.007478208281099796,0.0,-18.33582305908203,-68.08715057373047,0.0018437193939462304,0.05348037928342819,-178.486572265625,0.00299283885397017
186894,77.0244113476947,5.557549093700618,0.12339279055595398,-0.007478208281099796,0.0,-18.38739585876465,-68.08843231201172,0.0018521880265325308,0.0513630211353302,-178.49171447753906,0.0035290189553052187
186895,77.03379575908184,5.557549093700618,0.12339279055595398,-0.007478208281099796,0.0,-18.38739585876465,-68.08843231201172,0.0018521880265325308,0.0513630211353302,-178.49171447753906,0.0035290189553052187
186896,77.04308132547885,5.58608076978072,0.12339279055595398,-0.007478208281099796,0.0,-18.442474365234375,-68.08978271484375,0.0018594741122797132,0.04940958693623543,-178.49818420410156,0.004063536878675222
186897,77.05294684879482,5.642192799828666,0.0,-0.006979368161410093,0.12145709991455078,-18.503355026245117,-68.09127044677734,0.0018641662318259478,0.047852303832769394,-178.50534057617188,0.0044031646102666855
186898,77.06381110660732,5.6845433654457596,0.0,-0.006979368161410093,0.12145709991455078,-18.581459045410156,-68.09313201904297,0.0018659209599718451,0.04654773697257042,-178.5152587890625,0.004805818200111389
186899,77.07761244755238,5.698775044966684,0.0,-0.006979368161410093,0.12145709991455078,-18.650672912597656,-68.09476470947266,0.001867332379333675,0.045386604964733124,-178.5244903564453,0.005058485548943281
186900,77.08978868089616,5.712357912225228,0.0,-0.0065402379259467125,0.3259030282497406,-18.78163719177246,-68.0978012084961,0.001873779227025807,0.042634040117263794,-178.54237365722656,0.005285498220473528
186901,77.10185257531703,5.713241994388061,0.0,-0.0065402379259467125,0.3259030282497406,-18.848373413085938,-68.09932708740234,0.0018788146553561091,0.04094698280096054,-178.551513671875,0.005297463852912188
186902,77.11276433710009,5.713241994388061,0.0,-0.0065402379259467125,0.3259030282497406,-18.848373413085938,-68.09932708740234,0.0018788146553561091,0.04094698280096054,-178.551513671875,0.005297463852912188
186903,77.12445678934455,5.684396026980533,0.0,-0.0065402379259467125,0.3259030282497406,-19.004350662231445,-68.10285186767578,0.001899299561046064,0.03558528423309326,-178.57289123535156,0.0051544732414186
186904,77.140456661582,5.684396026980533,0.0,-0.0065402379259467125,0.3259030282497406,-19.004350662231445,-68.10285186767578,0.001899299561046064,0.03558528423309326,-178.57289123535156,0.0051544732414186
186905,77.15188794862479,5.667700933755865,0.0,-0.00566202774643898,0.5713737607002258,-19.0709171295166,-68.1043472290039,0.001909446669742465,0.03311275690793991,-178.58180236816406,0.0050297388806939125
186906,77.16363921947777,5.645556285061411,0.0,-0.00566202774643898,0.5713737607002258,-19.140979766845703,-68.10591125488281,0.0019216918153688312,0.030305547639727592,-178.5908660888672,0.004861314781010151
